SCHOOL_ID,SCHOOL_NAME,SCHOOL_ADDRESS,SCHOOL_CONTACT,SCHOOL_WEBSITE,SCHOOL_RATING,SCHOOL_CITY,School_Board,School_Lat,School_long,School_Photo
DE724,Delhi Public School R.K.Puram,"Delhi Public School, Kaifi Azmi Marg",+91 11 4911 5500,http://www.dpsrkp.net/,4.1,Delhi,CBSE,28.573066,77.176264,DE724.jpg
DE945,St. Xavier's Senior Secondary School,"4, Raj Niwas Marg",+91 11 2395 7778,http://www.stxaviersdelhi.com/,4.5,Delhi,CBSE,28.672705,77.223209,DE945.jpg
DE524,Carmel Convent School,Malcha Marg,+91 11 2687 1299,http://carmeldelhi.com/,4.4,Delhi,CBSE,28.610863,77.260008,DE524.jpg
DE1792,Sardar Patel Vidyalaya,Sardar Patel Vidyalaya,+91 11 2462 7344,http://spvdelhi.org/,4.6,Delhi,CBSE,28.597217,77.22686,DE1792.jpg
DE1793,Modern School,Barakhamba Rd,+91 11 2331 1618,http://www.modernschool.net/,4.4,Delhi,CBSE,28.628607,77.229359,DE1793.jpg
DE1330,Bal Bharati Public School Rajinder Nagar,"Ganga Ram Hospital Marg, Rajendra Nagar",+91 11 2578 2419,http://bbpsgr.balbharati.org/contact-us/,4,Delhi,CBSE,28.640362,77.190862,DE1330.png
DE1845,St. Columba's School,"1, Ashok Place, Near Gole Dakhana, Gole Market",+91 11 2336 3462,http://stcolumbas.edu.in/,4.7,Delhi,CBSE,28.629685,77.20649,DE1845.jpg
DE1621,Springdales School,"Benito Juarez Road, Dhaula Kuan",+91 11 2411 6657,http://springdales.com/,4.3,Delhi,CBSE,28.644505,77.196651,DE1621.jpg
DE1067,Bharti Public School,"Vikas Marg, Swasthya Vihar",+91 11 4244 0514,http://www.bps.edu.in/,4,Delhi,CBSE,28.639729,77.288782,DE1067.jpg
DE1109,"Sanskriti School, Chanakyapuri",Dr. S. Radhakrishnan Marg,+91 11 2688 3336,http://www.sanskritischool.edu.in/,4.5,Delhi,,28.589092,77.177255,DE1109.jpg
DE792,Delhi Public School Mathura Road,Mathura Rd,+91 11 4339 9200,http://www.dpsmathuraroad.org/,4.1,Delhi,CBSE,28.597453,77.242805,DE792.jpg
DE1052,Convent of Jesus & Mary,"1, Bangla Sahib Ln, Diz Staff Quarts, Connaught Place",+91 11 2336 6762,http://www.cjmdelhi.com/,4.2,Delhi,CBSE,28.629384,77.208327,DE1052.jpg
DE858,The British School,Dr Jose P Rizal Marg,+91 11 4066 4166,http://www.british-school.org/,4.1,Delhi,IGCSE,28.597658,77.18142,DE858.jpg
DE1530,Presentation Convent Sr. Sec. School,"Shyama Prasad Mukherji Marg, Between Red Fort & Old Delhi Railway Station",+91 11 2386 2862,http://www.pcsdelhi.in/,4.4,Delhi,CBSE,28.659929,77.235807,DE1530.jpg
DE1200,St. Thomas' Girls Senior Secondary School,"St. Thomas Church, Mandir Marg",+91 11 2336 4094,http://stthomasgirlsschool.com/,4.2,Delhi,CBSE,28.639783,77.204291,DE1200.jpg
DE978,Army Public School,Ridge Road,+91 11 2569 3131,http://www.apsdk.com/,4.5,Delhi,CBSE,28.600982,77.169686,DE978.jpg
DE1723,"Lovely Public Senior Secondary School,Delhi","Priyadarshini Vihar, Near Bank Enclave,Laxmi Nagar",+91 11 2205 8369,http://lpsschool.com/,3.6,Delhi,CBSE,28.641083,77.278087,DE1723.jpg
DE701,Lady Irwin Senior Secondary School,Shrimant Madhav Rao Scindia Marg,+91 11 2338 9564,http://www.ladyirwinschool.org/,4.1,Delhi,CBSE,28.620147,77.224455,DE701.jpg
DE1051,DTEA Senior Secondary School,"Nanakpura, Near Police station, Moti Bagh 2",+91 11 2467 3726,http://www.dteaschools.org/,3.7,Delhi,CBSE,28.594672,77.22632,DE1051.jpg
DE1136,Holy Child Auxilium School,"R.K. Puram, Sector 12",+91 11 2618 2766,http://hcauxilium.co.in/,4.2,Delhi,CBSE,28.576183,77.174845,DE1136.jpg
DE584,Presentation Convent Sr. Sec. School,"Shyama Prasad Mukherji Marg, Between Red Fort & Old Delhi Railway Station",+91 11 2386 2862,http://www.pcsdelhi.in/,4.4,Delhi,CBSE,28.659853,77.23571,DE584.JPG
DE1313,Navy Children School,"Navy Children School, Satya Marg",+91 11 2467 1892,http://ncsdelhi.nesnavy.in/,4.4,Delhi,CBSE,28.582705,77.1947,DE1313.jpg
DE1435,Faith Academy,"John L. Dorsey Road, Prasad Nagar",+91 11 2571 5784,http://www.faithacademy.in/,3.6,Delhi,CBSE,28.650559,77.180037,DE1435.jpg
DE1584,"Lovely Public Senior Secondary School,Delhi","Priyadarshini Vihar, Near Bank Enclave,Laxmi Nagar",+91 11 2205 8369,http://lpsschool.com/,3.6,Delhi,CBSE,28.641045,77.278034,DE1584.jpg
DE1695,St. Thomas' Girls Senior Secondary School,"St. Thomas Church, Mandir Marg",+91 11 2336 4094,http://stthomasgirlsschool.com/,4.2,Delhi,CBSE,28.639783,77.204141,DE1695.jpg
DE1773,DTEA Senior Secondary School,"Nanakpura, Near Police station, Moti Bagh 2",+91 11 2467 3726,http://www.dteaschools.org/,3.7,Delhi,CBSE,28.594653,77.226212,DE1773.jpg
DE535,Anglo Arabic Senior Secondary School,Ajmeri Gate,+91 11 2321 2734,http://angloarabic.co.in/,5,Delhi,,28.646156,77.223199,DE535.jpg
DE606,Hillwoods Academy School,"G- Block, Preet Vihar",+91 11 2252 4856,http://www.hillwoodsindia.com/,4,Delhi,CBSE,28.642013,77.300617,DE606.jpg
DE645,Mater Dei School,Tilak Lane,+91 11 2338 7679,http://www.materdeischool.in/,4.5,Delhi,CBSE,28.616575,77.236974,DE645.jpg
DE684,Mother's Global School,"C-Block, Preet Vihar",+91 11 2250 1900,http://mothersglobal.in/,4.3,Delhi,CBSE,28.636614,77.293083,DE684.jpg
DE1876,Lady Irwin Senior Secondary School,Shrimant Madhav Rao Scindia Marg,+91 11 2338 9564,http://www.ladyirwinschool.org/,4.1,Delhi,CBSE,28.577866,77.270889,DE1876.jpg
DE759,National Victor Public School,IP Ext,+91 11 2224 8200,http://www.nationalvictor.org/,4,Delhi,CBSE,28.631892,77.312214,DE759.jpg
DE1877,Ryan International School,"Complex, Sector 21/B, Kondli Gharouli",+91 11 2261 5764,http://www.ryaninternationalschools.com/rismayurvihar/,3.6,Delhi,CBSE,28.538593,77.138796,DE1877.jpg
DE552,Bal Mandir Public School,"Gali Number 18, Kailash Nagar, Seelampur",+91 11 2254 8371,https://balmandirschool.com/,2.8,Delhi,CBSE,28.663594,77.2611,DE552.jpg
DE857,Bal Mandir Senior Secondary School,"Defence Enclave, Vikas Marg",+91 11 2254 8731,http://www.balmandirschool.com/,3.6,Delhi,CBSE,28.64202,77.292893,DE857.jpg
DE1278,Somerville School,"Vasundhara Enclave, Shaheed Budh Ram Singh Marg",+91 11 4303 4722,http://www.somervillevasundhara.in/,4.2,Delhi,CBSE,28.60362,77.319523,DE1278.jpg
DE1488,Lady Irwin Senior Secondary School,"D-306, Varun Marg, Defence Colony",+91 11 2462 3196,http://ladyirwinschool.in/,4.1,Delhi,,28.579834,77.255753,DE1488.jpg
DE1759,Happy English School (No.II),"294 block, Patpar Ganj Rd, 11, Link Pusta Rd",+91 11 2241 1111,http://www.hesgc.com/,3,Delhi,ICSE,28.652707,77.278439,DE1759.jpg
DE1336,Happy Public School,"32/125, Street No 10, Vishwas Nagar",+91 11 2230 4944,http://happyhomepublicschool.com/,4,Delhi,CBSE,28.660529,77.2933,DE1336.jpg
DE1118,South Delhi Public School,"D-Block, Lala Lajpat Rai Rd",+91 11 4763 3333,http://www.southdelhipublicschool.com/,3.6,Delhi,CBSE,28.578567,77.23724,DE1118.png
DE1482,Happy School,"Padam Chand Marg, Darya Ganj",+91 11 2327 1695,http://www.happyschoolnewdelhi.edu.in/,4.1,Delhi,CBSE,28.649617,77.242855,DE1482.png
DE1034,DIWAN CHAND ARYA SR. SEC SCHOOL,Vardman Marg,+91 11 2469 4102,http://diwanchandschool.com/,4,Delhi,CBSE,28.588884,77.22466,DE1034.png
DE1306,Government Co-education Secondary School,"Teliwara Chowk, Near Durga Mandir, Shahdara",+91 11 2239 3033,http://delhi.gov.in/wps/wcm/connect/DOIT_Education/education/home/about+us/list+of+government+schools,3.5,Delhi,CBSE,28.673531,77.292971,DE1306.jpg
DE536,Brats n Cuties - Best Pre Schools,R-25 Naveen Shahdara,+91 70423 14545,http://www.bratsandcuties.com/,3,Delhi,,28.687891,77.307882,DE536.jpg
DE877,New Green Land Public School,351 Krishan Kunj Cly. Laxmi Nagar,+91 70844 87359,http://www.delhi.gov.in/wps/wcm/connect/DOIT_Education/education/home/about+us/list+of+public+schools+recognised+by+mcd,3.1,Delhi,CBSE,28.640112,77.276879,DE877.png
DE1898,Geeta National Primary School,"I-193, Laxmi Nagar",+91 98108 89490,http://delhi.gov.in/wps/wcm/connect/DOIT_Education/education/home/about+us/list+of+public+schools+recognised+by+mcd,4,Delhi,CBSE,28.624646,77.283693,DE1898.png
DE553,Vaishali Public School,"7-8 Sunder Park, Shastri Nagar",+91 11 2246 8896,http://delhi.gov.in/wps/wcm/connect/DOIT_Education/education/home/about+us/list+of+public+schools+recognised+by+doe,3.6,Delhi,CBSE,28.646032,77.274826,DE553.png
DE1317,Bal Bharti P/S Kundan Nagar,"Kundan Nagar, Laxmi Nagar",+91 98107 43016,http://www.delhi.gov.in/wps/wcm/connect/DOIT_Education/education/home/about+us/list+of+public+schools+recognised+by+mcd,1,Delhi,CBSE,28.631494,77.278787,DE1317.png
DE1981,Ryan International School,"Block E, Opp Durga Mandir, Preet Vihar",+91 11 2204 5772,http://www.ryaninternational.org/,3.8,Delhi,ICSE,28.613994,77.335975,DE1981.png
DE1219,Cambridge Primary School New Delhi,"A- Block, New Friends Colony",+91 11 2631 5060,http://nfc.cambridgeschool.edu.in/,4.5,Delhi,CBSE,28.566397,77.275063,DE1219.png
DE1533,The Learning Tree,"B - 13, Subramaniam Bharti Marg, Sujan Singh Park, Khan Market",+91 97171 00853,http://www.learningtreeplayschool.com/,5,Delhi,,28.566397,77.275063,DE1533.png
DE1201,SALWAN MONTESSORI SCHOOL,"SAlwan Road, Near Karol Bagh Metro Station, Rajendra Nagar",+91 11 4925 4507,http://salwanmontessorischool.net/,4.7,Delhi,CBSE,28.610279,77.340471,DE1201.png
DE796,Salwan Public School,"Kondli-Gharoli Complex, Mayur Vihar-III",+91 98144 49630,http://www.spsmayurvihar.com/,4.4,Delhi,CBSE,28.610166,77.339301,DE796.png
DE1563,Shishu Gyan Vidyalaya,"689, Kabool Nagar, Shahdra",+91 98113 63328,http://delhi.gov.in/wps/wcm/connect/DOIT_Education/education/home/about+us/list+of+public+schools+recognised+by+doe,3,Delhi,,28.677361,77.290505,DE1563.png
DE760,Bharat National Public School,"Ram Vihar, Karkardooma, Delhi-110092",+91 11 2237 0871,http://www.bnpsramvihar.edu.in/,4,Delhi,CBSE,28.658146,28.658146,DE760.png
DE1015,"Gyan Devi Salwan Public School
",Old Rajinder Nagar,+91 11 6537 7342,http://www.gdsalwan.com/,4,Delhi,CBSE,28.64118,77.183747,DE1015.png
DE1105,Banyan Tree School,"3, Lodhi Institutional Area",+91 11 4093 4390,http://www.banyantree.in/,3.9,Delhi,CBSE,28.587344,77.228131,DE1105.png
DE576,THE ARDEE SCHOOL,Maharshi Raman Marg,+91 98111 10042,http://www.theardeeschool.com/,4.1,Delhi,IGCSE,28.599602,77.23024,DE576.png
DE1334,DTEA Senior Secondary School,"Opposite Bunglow No.46, Sector 4, Lodhi Estate",+91 11 2467 4109,http://www.dteaschools.org/,3.9,Delhi,CBSE,28.594737,77.226352,DE1334.jpg
DE1816,The Pinnacle School,"Senior Junior And Tiny Tots, D-Block Panchsheel Enclave, New Delhi",+91 88609 35481,http://thepinnacleschool.com/,3,Delhi,CBSE,28.545088,77.228499,DE1816.png
DE735,Ambience Public School,"A-1, Safdurjung Enclave",+91 11 4723 2000,http://www.ambiencepublicschool.com/,4.3,Delhi,CBSE,28.566152,77.19885,DE735.png
DE1669,Greenway Modern School,"A-210, Jhilmil Colony",+91 11 2214 0795,http://www.greenwayschool.org/,3.8,Delhi,CBSE,28.682742,77.316223,DE1669.png
DE1130,Mayur Public School,"I.P.Extension , Behind mother dairy plant",+91 11 2247 7676,http://www.mayurpublicschool.com/,3.8,Delhi,CBSE,28.622722,77.292102,DE1130.png
DE1828,The Sanskriti,"2058, Chandani Chowk, Paranthe Wali Gali, Chandani Chowk",+91 11 2327 8548,http://www.sanskritischool.edu.in/,1,Delhi,CBSE,28.664,77.243012,DE1828.png
DE1112,DTEA Senior Secondary School,Sadhu Vasvani Marg,+91 11 2574 3989,http://www.dteaschools.org/,4.1,Delhi,CBSE,28.644217,77.19463,DE1112.png
DE812,Maple Bear Canadian Pre-School,"Block B-1/46, Ground Floor, Safdarjung Enclave",+91 98107 76259,http://www.maplebear.in/safdarjungenclave/,4.2,Delhi,CBSE,28.566017,77.191331,DE812.png
DE1820,"Maple Bear Canadian Pre-school, New Friends Colony
","B-324, New Friends Colony",+91 95999 36624,http://www.maplebear.in/nfcdelhi,5,Delhi,CBSE,28.567747,77.274013,DE1820.png
DE1371,German School New Delhi,"2, Block F, Diplomatic Enclave, Nyaya Marg, Chanakyapuri",+91 11 4168 0240,http://www.dsnd.de/,4.5,Delhi,,28.599852,77.188455,DE1371.png
DE1940,Green Fields School,"Block A 2, Chaudhary Jhandu Singh Rd",+91 11 2610 1106,http://www.greenfieldsschool.co.in/,4.2,Delhi,CBSE,28.566694,77.194512,DE1940.png
GH943,Seth Anandram Jaipuria School,"Sector 14, Vasundhara",+91 120 417 9300,http://jaipuria.edu.in/ghaziabadschool/,4,Ghaziabad,CBSE,28.658244,77.363203,GH943.png
GH1494,Khaitan Public School,"Ganga Banquet Rd, Sector 5, Rajendra Nagar, Sahibabad",+91 120 485 0300,http://khaitanpublicschool.com/,4.2,Ghaziabad,CBSE,28.682765,77.354062,GH1494.png
GH1756,St Thomas School,"Sector IV, Lajpat Nagar,Sahibabad",+91 120 263 0677,http://www.stthomasghaziabad.org/,3.7,Ghaziabad,CBSE,28.645327,77.352154,GH1756.png
GH1343,Indirapuram Public School,"C-Block, Sector 12, Pratap Vihar",+91 120 284 0031,http://www.indirapuramschool.com/,3.9,Ghaziabad,CBSE,28.64133,77.354138,GH1343.png
GH1932,Delhi Public School,"Sector 9, Vasundhara",+91 120 288 0262,http://dpsgv.in/,4,Ghaziabad,CBSE,28.658104,77.37148,GH1932.png
GH1513,Cambridge School,"Shakti Khand II, Indirapuram",+91 120 260 7330,http://www.csindirapuram.com/,4.4,Ghaziabad,CBSE,28.647239,77.365377,GH1513.png
GH1918,The Modern School,"Sector 2A/CC, Vasundhara",+91 120 650 0471,http://modernschoolgz.com/,4.1,Ghaziabad,CBSE,28.667545,77.391168,GH1918.png
GH933,Ch. Chhabil Dass Public School,"Ch, B - Block, Chhabil Das Marg",+91 120 285 6952,http://ccdps.in/,3.9,Ghaziabad,CBSE,28.673249,77.420647,GH933.png
GH1776,Amity International School,"HS-1 Sector-1, Vasundhara",+91 120 269 9290,http://www.amity.edu/ais/aisv1/,4.1,Ghaziabad,CBSE,28.667325,77.388329,GH1776.png
GH1164,Delhi Public School Indirapuram,"526/1, Ahinsa Khand -II, Indirapuram",+91 120 466 0000,http://www.dpsindirapuram.com/,4.6,Ghaziabad,CBSE,28.64554,77.381693,GH1164.png
GH1239,JKG International School Indirapuram,"Plot Number-13/14, Shakti Khand 2, Opp Swarn Jayanti Park, Indirapuram",+91 120 265 3104,http://www.jkgschool.com/jkgi/,4.1,Ghaziabad,CBSE,28.646681,77.369072,GH1239.png
GH1473,Arwachin Public School,"Sector 14, Vasundhra",+91 120 288 4141,http://www.arwachinkids.com/,3.8,Ghaziabad,CBSE,28.657739,77.361221,GH1473.png
GH1657,DPS Indirapuram,"No. 526/1, Judges Enclave, Indirapuram, Ahinsa Khand -II",+91 120 466 0000,http://www.dpsindirapuram.com/,4.1,Ghaziabad,CBSE,28.645606,77.381264,GH1657.png
GH1157,Play school in Indirapuram,"186, Gyan Khand 1",+91 90159 26222,http://www.rainbow-theplaygroup.com/,5,Ghaziabad,CBSE,28.641831,77.351253,GH1157.png
GH1216,Ralli International School,"Nitikhand-III, Indirapuram",+91 120 490 1624,http://www.ralliinternationalschool.com/,4.6,Ghaziabad,CBSE,28.645484,77.376515,GH1216.png
GH1331,"Maple Bear Canadian School, Indirapuram, Ghaziabad","Gate, Street Number 04",+91 85128 88820,http://www.maplebear.in/shiprasuncity/,3.9,Ghaziabad,,28.638547,77.376322,GH1331.jpg
GH1391,KR Mangalam World School,"Plot No 11, Sector 6, Near Arogya Hospital, Vaishali Extension, Ramprastha Greens, Vaishali",+91 87507 83999,http://krmangalam.com/vaishali/,4.2,Ghaziabad,CBSE,28.655029,77.364873,GH1391.jpg
GH875,Ralli International School,"Nitikhand-III, Indirapuram",+91 120 490 1624,http://www.ralliinternationalschool.com/,4.6,Ghaziabad,CBSE,28.644881,77.376242,GH875.png
GH1822,St. Francis School,"Abhay Khand-III/2, Indirapuram, Ghaziabad",+91 120 269 0310,http://www.sfsindirapuram.com/,3.8,Ghaziabad,CBSE,28.640603,77.346463,GH1822.jpg
GH1435,"DAV Public School, Sahibabad","Sector - II, T.H. A., Rajender Nagar, Sahibabad",+91 120 263 1206,http://www.davpssahibabad.org/,4.2,Ghaziabad,CBSE,28.684823,28.684823,GH1435.jpg
GH1902,"Maple Bear Canadian School, Indirapuram, Ghaziabad","Gate, Street Number 04",+91 85128 88820,http://www.maplebear.in/shiprasuncity/,3.9,Ghaziabad,,28.638444,77.375957,GH1902.png
GH1317,Hand In Hand- A play School & Day Care,Plot No: 404,+91 98109 56464,http://www.handinhand.in/,4.2,Ghaziabad,,28.641902,77.372949,GH1317.png
GH637,Bloom Public Senior Secondary School,"E-Block,Sec-11,Pratap Vihar",+91 99997 46018,http://www.bloompublicschoolgzb.com/,3.3,Ghaziabad,CBSE,28.655011,77.415088,GH637.png
GH1633,KR Mangalam World School,"Plot No 11, Sector 6, Near Arogya Hospital, Vaishali Extension, Ramprastha Greens, Vaishali",+91 87507 83999,http://krmangalam.com/vaishali/,4.2,Ghaziabad,CBSE,28.647186,77.351282,GH1633.png
GH1483,CSHP Public School,"Pratap Vihar, G Block",+91 120 284 3032,http://www.cshpschool.com/,3.2,Ghaziabad,CBSE,28.658451,77.411477,GH1483.png
GH874,Presidium School Indirapuram,"A-16, Habitat Centre, Ahinsa Khand- I, Indirapuram",+91 78386 54425,http://www.presidiumindirapuram.com/,3.8,Ghaziabad,CBSE,28.641198,77.369812,GH874.png
GH965,Vanasthali Public School,"Plot no. 2, Gautam Palvi Road, Block C, Sector 2, Vaishali",+91 120 321 3323,http://www.vpsvaishali.com/,4.1,Ghaziabad,CBSE,28.664808,77.387199,GH965.png
GH1302,Mount Litera Zee School,"B-8, Rajiv Colony Marg, Block B, Loni Industrial Area, Near BLS Institute of Management, Mohan Nagar",+91 120 419 2543,http://www.mountliteragzb.com/,3.6,Ghaziabad,CBSE,28.681077,77.384504,GH1302.png
GH1606,St Teresa School,"Shakti Khand-II, Indirapuram",+91 88260 00216,http://www.stteresaschool.in/,4.3,Ghaziabad,CBSE,28.64771,77.36904,GH1606.png
GH1582,Police Modern School,"41 Battalion P.A.C, Sector-1, Vaishali",+91 120 277 2071,http://www.pms41bn.com/,4.4,Ghaziabad,CBSE,28.638172,77.332147,GH1582.png
GH853,"Sanfort Indirapuram- Nursery School, Kindergarten, Best Play School, Best Preschool in Indirapuram","136, Niti Khand II, Indirapuram",+91 95407 71133,http://www.sanfortschools.com/,4.2,Ghaziabad,,28.645855,77.371486,GH853.png
GH1820,Bloom Public S.R Secondary School,"K-13, E-Block, Vijay Nagar, Sector-9, Pratap Vihar",+91 99115 11615,http://www.bloompublicschoolgzb.com/,3.4,Ghaziabad,CBSE,28.64795,77.407886,GH1820.png
GH618,GD Goenka Public School,"711, Shakti Khand III, Indirapuram",+91 99995 72500,http://gdgoenkaschoolindirapuram.com/,3.4,Ghaziabad,CBSE,28.702011,77.414102,GH618.png
GH1581,Allenhouse Public School,PS2,+91 97176 52378,http://www.allenhouseghaziabad.com/,4.3,Ghaziabad,CBSE,28.669179,77.388783,GH1581.png
GH1124,Sun Valley International School,"A-1, Sector 1, Vaishali",+91 120 277 7725,http://sunvalleyncr.com/,4.1,Ghaziabad,CBSE,28.635623,77.331964,GH1124.png
GH1204,Pratap viharSSK Public School,"F-block, Sector-11, Pratap Vihar, Pratap Vihar",+91 120 274 1907,http://www.sskpublicschool.org/123456,3.3,Ghaziabad,CBSE,28.655053,77.41332,GH1204.png
GH1781,Sanfort,"405,",+91 98710 41563,http://www.sanfortschools.com/,2.7,Ghaziabad,,28.661794,77.383462,GH1781.png
GH512,"Sanfort School- Top, Preschool, Play School Franchise in Ghaziabad, Delhi,India","1514/1,",+91 99906 42929,http://www.sanfortschools.com/,4.6,Ghaziabad,,28.661816,77.383309,GH512.png
GH1650,RiseKids Pre-School,"1/53 & 1/54,",+91 78400 02559,http://risekids.in/,3.5,Ghaziabad,,28.666533,77.387487,GH1650.png
GH1081,Aryan Public School,Kaling Marg,+91 120 457 1510,http://www.aryanpublicschool.com/,3.8,Ghaziabad,,28.645475,77.342776,GH1081.png
GH851,Risekids Pre-School,"13/157 – A, Near Maharaja Agarsain Public School, Sec -1 3",+91 1800 833 5335,http://www.risekids.in/,4,Ghaziabad,,28.666504,77.387283,GH851.png
GH1316,Fatima Convent Senior Secondary School.,Nandgram Rd,+91 120 287 1847,http://fatimaconventschool.com/,4.3,Ghaziabad,CISCE,28.684062,77.414162,GH1316.png
GH527,Sanfort,"338, Gyan Khand 1",+91 85869 26794,http://www.sanfortschools.com/,3.7,Ghaziabad,,28.661757,77.382905,GH527.png
GH1855,National Public School,"Plot No :38, Gali Number 3, Shyam Park",+91 120 265 7306,http://www.nationalpublicschool.org.in/,3.3,Ghaziabad,CBSE,28.687268,77.360782,GH1855.png
GH1181,"D.A.V. Public School, Brij Vihar",Brij Vihar,+91 120 264 1387,http://davbrijvihar.com/,3.6,Ghaziabad,CBSE,28.671204,77.338279,GH1181.png
GH1375,Diwakar Model School,GHAZIABAD,+91 98107 46270,http://www.diwakarmodelschool.in/,3.1,Ghaziabad,CBSE,28.672272,77.332181,GH1375.png
GH680,RiseKids Pre-School,"III-A / 14, Sector 3, Vaishali",+91 78400 02669,http://www.risekids.in/,5,Ghaziabad,,28.66658,77.387004,GH680.png
GH684,Diwakar Model School,"D. 23/1, GT Road",+91 120 263 0047,http://www.diwakarmodelschool.in/,2.4,Ghaziabad,CBSE,28.677532,77.371798,GH684.png
GH1437,Sanfort,"Plot No 433 Sector 4 Oppt. Milan Garden Gate No.1 Rampratha Green Sector 4, Vaishali",+91 87440 00268,http://www.sanfortschools.com/,4.1,Ghaziabad,,28.661734,77.383272,GH1437.png
GH1102,WELL BEING SPECIAL SCHOOL,"218, Gyan Khand 1",+91 98119 58619,https://www.facebook.com/wellbeingspecialschool,4.8,Ghaziabad,,28.641992,77.351465,GH1102.png
GH792,Little Millennium Indirapuram -Pre School,"Plot no-446, Niti khand -2, Opp shipra society indirapuram, ,near Abhilasha Properties",+91 99580 01800,http://www.littlemillenniumindirapuram.com/,4.6,Ghaziabad,,28.641878,77.363463,GH792.png
GH503,Mother's Pride Sahibabad,"3/36, Sector 5, Rajendra Nagar Sahibabad",+91 78386 53122,http://www.motherspridepreschool.com/,4.1,Ghaziabad,,28.685604,77.375713,GH503.png
GH1264,RiseKids Pre-School,Mar-90,+91 78400 02116,http://risekids.in/,4,Ghaziabad,,28.666561,77.387337,GH1264.png
GH1812,New Rainbow Public School,"P-Block, Sec-12, Pratap Vihar",+91 120 274 6354,http://www.nrpschool.com/,4.2,Ghaziabad,CBSE,28.650767,77.410629,GH1812.png
GH1755,Mother's Pride Vasundhara,"Plot No. 510, Friend's Society, Sector 12, Vasundhara",+91 88606 35328,http://www.motherspridepreschool.com/,4.4,Ghaziabad,,28.667493,77.374751,GH1755.png
GH1252,"Mother's Pride Patel Nagar, Ghaziabad","A-,, 105, Meerut Rd",+91 78386 54293,http://motherspridepreschool.com/,3.7,Ghaziabad,,28.673041,77.415665,GH1252.png
GH1130,Rainbow -The Play Group,"186, Gyan Khand 1",+91 98110 26960,http://www.rainbow-theplaygroup.com/,4.7,Ghaziabad,,28.641843,77.350529,GH1130.png
GH1493,Shree Thakurdwara Balika Vidyalaya,"Hapur Road Tiraha, G.T.Road",+91 120 283 2470,http://www.thakurdwaraschool.com/,4,Ghaziabad,CBSE,28.666072,77.422188,GH1493.png
GH1012,VDS CONVENT SCHOOL,"M-42, Pratap Vihar",+91 120 321 9239,http://vdsconventschool.com/,4,Ghaziabad,CBSE,28.656967,77.416007,GH1012.png
GH1376,Aryan Kids World,"Sector-4, Vaishali",+91 120 277 3471,http://www.aryanpublicschool.com/content/aryan-kids-world,3.6,Ghaziabad,CBSE,28.645075,77.343146,GH1376.png
GH1222,Vanasthali Public School,"Sector 3, Vasundhara",+91 120 411 1061,http://www.vanasthalischool.in/,3.6,Ghaziabad,,28.664789,77.386995,GH1222.png
GH760,Mothers Pride Academy,"Vasundhara Mother's Pride Academy Sector-12, Vasundhara, Ghaziabad-201012",+91 99108 99613,https://www.motherspridepreschool.com/,3.9,Ghaziabad,,28.660019,77.366706,GH760.png
GH1129,Divakar Model School,"Divakar Model School,",+91 120 262 0251,http://www.diwakarmodelschool.in/,4.5,Ghaziabad,CBSE,28.677532,77.371476,GH1129.png
GH1583,"Delhi Convent School, ghaziabad","Vikram Enclave,Shalimar Garden,Aradhana Cinema,Sahibabad, Major Mohit Sharma Marg",+91 93102 11400,https://delhi-convent-school-ghaziabad.business.site/,5,Ghaziabad,CBSE,28.692941,77.339652,GH1583.png
GH679,Caterpillar Cafe Playway,1213 Near One Mart Mall,+91 99535 29006,http://www.mycity4kids.com/caterpillarcafe,5,Ghaziabad,,28.663569,77.378342,GH679.png
GH1246,Diwakar Model School,main near l r college,+91 98107 46270,http://www.diwakarmodelschool.in/,3.2,Ghaziabad,CBSE,28.678787,77.377915,GH1246.png
GH1073,Diwakar model school,D-23/1 GHAZIABAD,+91 98107 46270,http://www.diwakarmodelschool.in/,3.3,Ghaziabad,CBSE,28.677598,77.371175,GH1073.png
GH1693,Vivekanand Global School,Kala Pathar Marg,+91 92117 28856,http://www.vgsindirapuram.com/,3.7,Ghaziabad,CBSE,28.634037,77.360358,GH1693.png
GH1143,Sahaj International School,"Plot No.3, Gyan Khan-1, Indirapuram, Gyan Khand 1",+91 81302 94809,http://sahajinternationalschool.com/,4.2,Ghaziabad,,28.642536,77.350337,GH1143.png
GU1860,Lotus Valley International School,"M-Block, South City-II, Sector-50, Nirvana Country, Behind North Close",+91 124 493 6900,http://www.lotusvalleygurgaon.com/,4,Gurgaon,CBSE,28.538415,77.345815,GU1860.png
GU1222,Blue Bells Model School,"Sector- 4, Urban Estate, Huda Market",+91 124 469 8888,http://www.bluebells.org/,3.2,Gurgaon,CBSE,28.478023,77.012623,GU1222.png
GU1694,Delhi Public School,"Sector-102 A, Dwarka Expy",+91 81303 14455,http://www.dpsgurgaon.in/,4.5,Gurgaon,CBSE,28.464579,77.076164,GU1694.png
GU700,Shikshantar,"Central Avenue, Block K, South City I, Sector 41",+91 124 488 9100,http://shikshantarschool.com/,4.5,Gurgaon,CISCE,28.454267,77.066221,GU700.png
GU1053,Suncity School Gurgaon,"Suncity Township, Sector 54",+91 124 484 5300,http://www.suncityschool.in/,4.4,Gurgaon,CBSE,28.461706,77.067075,GU1053.png
GU1558,DAV Public School,"Near Khandsa Road, Sector 10A",+91 124 237 3552,http://www.dav14gurgaon.org/,3.8,Gurgaon,CBSE,28.476547,77.051829,GU1558.png
GU767,The Shri Ram School Aravali,"Hamilton Court Complex, Phase IV, DLF City",+91 124 478 4300,http://www.tsrs.org/,4.3,Gurgaon,CBSE,28.466912,77.086488,GU767.png
GU599,Delhi Public School,"Site No. I, Sector-45, Urban Estate",+91 124 412 5800,http://www.dpsgurgaon.org/,3.9,Gurgaon,CBSE,28.464645,77.076314,GU599.png
GU522,St Angel's Senior Secondary School,"Uday Nagar, Sector 45 326 Vikas Marg Block C Uday Nagar Sector 45 Gurgaon हरियाणा 122003 Republic of",+91 124 258 0259,http://www.stangels.co.in/,4.4,Gurgaon,ICSE,28.442103,77.0704,GU522.png
GU516,Scottish High International School,"Block- G, Sushant Lok II, Sector 57, Near Hongkong Bazar",+91 124 411 2782,http://www.scottishigh.com/,4.1,Gurgaon,IGCSE,28.426548,77.089631,GU516.png
GU1958,Shalom Hills International School,"C/2144, St Thomas Marg",+91 124 404 6471,http://www.shalomhills.com/,4.3,Gurgaon,CBSE,28.448697,77.08452,GU1958.png
GU1320,Shiv Nadar School,"DLF City, Phase -1 Block -E, Pahari Road",+91 124 454 9200,http://shivnadarschool.edu.in/website/gurgaon/overview/,3.5,Gurgaon,CBSE,28.477813,77.160812,GU1320.png
GU1795,Amity International School,"Huda Colony, Sector 46 Gurugram, Near Ambedkar Chow, Wazir pur Road",+91 98109 83009,http://www.amity.edu/ais/aisg2/,2.6,Gurgaon,CBSE,28.436824,77.064977,GU1795.png
GU804,Shikshantar School - Junior Wing,"J-Block, South City -1, Bhagwan Mahaveer Marg, Sector 41",+91 124 488 9100,http://www.shikshantarschool.com/,4.3,Gurgaon,,28.454239,77.0662,GU804.png
GU536,Top School in Gurgaon,"TECHNICAL PARADISE, SECTOR 56, GURGOAN, Basai Rd",+91 124 411 2782,https://www.scottishigh.com/,5,Gurgaon,CBSE,28.449502,76.987453,GU536.png
GU1920,Delhi Public School Primary Wing,"P 208, Sector 47, Behind Malibu Town",+91 124 412 5900,http://www.dpsgurgaon.org/,3.8,Gurgaon,CBSE,28.429657,77.053009,GU1920.png
GU1350,Shri Shiv Narain Sidheswar Senior Secondary Public School,"Sector 9A, Near ESI Hospital",+91 124 428 1311,http://snsidheshwar.com/,4,Gurgaon,CBSE,28.467594,76.996838,GU1350.png
GU1718,Sharda International School,"Shiv Nagar, Pataudi Road, Sector-10 A",+91 124 232 1732,http://www.shardainternationalschool.in/,3.5,Gurgaon,CBSE,28.464946,77.000134,GU1718.png
GU730,Blue Bells Public School,"Sector -10, Urban Estate",+91 98119 45543,http://www.bluebells.org/,4,Gurgaon,CBSE,28.453923,77.003226,GU730.png
GU1088,Top School in Gurgaon,"TECHNICAL PARADISE, SECTOR 56, GURGOAN, Basai Rd",+91 124 411 2782,https://www.scottishigh.com/,5,Gurgaon,CBSE,28.449502,76.987453,GU1088.png
GU1777,Gurugram Public School,"Plot No. 5 Sector 55, Sushant Lok II",+91 124 437 3426,http://www.gurugramschool.in/,3.8,Gurgaon,CBSE,28.426068,77.106783,GU1777.png
GU1672,KIIT World School Junior,"Near Amity International School,, 3180P, Vikas Marg,, Sector 46,",+91 124 257 9771,http://www.kiitworldgurgaon.com/,4.9,Gurgaon,CBSE,28.435,77.063977,GU1672.png
GU1944,Gyan Devi Public School,Sector 17A,+91 124 234 2120,http://www.gyandevi.com/,4,Gurgaon,CBSE,28.479949,77.057224,GU1944.png
GU1596,Blue Bells Preparatory School,Old Railway Rd,+91 124 469 8888,http://www.bluebells.org/,3.9,Gurgaon,,28.474784,77.017314,GU1596.png
GU1491,Shalom Hills International School,"Block C, Sushant Lok Phase I",+91 124 404 6471,http://www.shalomhills.com/,4.4,Gurgaon,CBSE,28.448612,77.084338,GU1491.png
GU1346,Ajanta Public School,Sector-31,+91 124 238 1823,http://www.ajantapublicschool.org/,3.8,Gurgaon,,28.451361,77.048827,GU1346.png
GU912,K.R.Mangalam World School,"E- Block, South City I",+91 95400 82727,http://krmangalam.com/gurugram/,4.1,Gurgaon,CBSE,28.461242,77.067222,GU912.png
GU1455,The VIDYA School,"Plot No. 3126, Block S, Near St. Stephen’s Hospital, DLF Phase – 3, Sector 24",+91 124 404 9559,http://vidyaschool.com/,5,Gurgaon,CBSE,28.485918,77.099733,GU1455.png
GU921,S.D Adarsh Vidyaalaya,"SH 13, Malibu Town, Sector47",+91 98144 49630,http://www.sdadarshvidyalayagurgaon.com/,4.4,Gurgaon,CBSE,28.422546,77.040063,GU921.png
GU1462,Janta School,"Near Balaji Temple, Sector 37, Khandsa Village Road",+91 124 238 1823,http://www.ajantapublicschool.org/,3,Gurgaon,CBSE,28.434345,77.003285,GU1462.png
GU1744,Ryan International School,"Site No. 1 , Sector 40",+91 124 238 3183,http://www.ryaninternational.org/,2.2,Gurgaon,CBSE,28.460843,77.067539,GU1744.png
GU928,GRM Public School,"Plot No. 5, Sushant Lok II, Sector-55",+91 124 437 3426,http://www.gurugramschool.in/,4,Gurgaon,CBSE,28.426091,77.106936,GU928.png
GU503,G D Goenka Global School,"R/6/5, S-31B/5-6, Galli Number 30",+91 124 235 0005,http://www.gdgoenkaglobal.com/,4.9,Gurgaon,,28.486125,77.102176,GU503.png
GU1198,American Montessori Public School,"L-Block, Cassia Marg, DLF City, Phase-II",+91 124 235 3131,http://www.americanpublicschool.com/,4.3,Gurgaon,CBSE,28.485059,77.082095,GU1198.png
GU1049,Ryan Global School,Superb Star Residency,+91 124 238 0113,http://www.ryanglobalschools.com/site/gurgaon/,3.7,Gurgaon,CBSE,28.452736,77.055586,GU1049.png
GU752,Delhi Public School Sushant Lok,"B Block, Sushant Lok Phase I, Sector 29",+91 124 404 1221,http://www.dpssl.net/,3.8,Gurgaon,CBSE,28.464532,77.077012,GU752.png
GU619,"Maple Bear Canadian Preschool, Sector 14 Gurgaon","C- 44/A, Old DLF Colony, Sector 14",+91 96546 78481,http://www.maplebear.in/sector14,3.2,Gurgaon,,28.470898,77.046295,GU619.png
GU1456,Summer Fields School Dlf,"DLF Qutab Enclave Complex, Phase-I",+91 124 235 6536,http://www.sfsdlf.com/sfs/,4.3,Gurgaon,CBSE,28.473429,77.098096,GU1456.png
NO1088,The Khaitan School,"1A/A, Block F, Sector 40",+91 120 400 7575,http://www.thekhaitanschool.org/,3.8,Noida,CBSE,28.565357,77.352751,NO1088.png
NO1280,Billabong High International School,"A-73, Sector-34",+91 120 423 3128,http://billabonghighschoolnoida.com/,4.3,Noida,CBSE,28.583982,77.36346,NO1280.png
NO1852,Vishwa Bharati Public School,"Arun Vihar, Sector 28",+91 120 245 5142,http://vbpsnoida.com/,4.3,Noida,CBSE,28.572695,77.333174,NO1852.png
NO1927,Mayoor School,"Sector 126, Expressway, Next to Amity University",+91 120 461 8301,http://www.mayoornoida.net/,3.8,Noida,CBSE,28.544113,77.337721,NO1927.png
NO1576,Assisi Convent School,"A-43, Block A, Sector 33",+91 120 250 5412,http://assisinoida.com/,4.2,Noida,CBSE,28.588572,77.353972,NO1576.png
NO1407,Somerville School,"D-89, Sector- 22, Gautam Buddh Nagar",+91 120 241 5050,http://www.somervillenoida.in/,4.1,Noida,,28.594618,28.594618,NO1407.png
NO749,Cambridge School,"Near Viniyak Hospital, Gautam Budh Nagar, Sector-27",+91 120 252 8509,http://noida.cambridgeschool.edu.in/,4.1,Noida,,28.573123,77.328771,NO749.png
NO861,Lotus Valley International School,Expressway,+91 99109 62228,http://www.lotusvalley.com/,4,Noida,CBSE,28.538405,77.345225,NO861.png
NO1599,The Millennium School,"No.D-108, Aghapur, Sector 41",+91 120 421 7341,http://www.themillenniumschools.com/,3.6,Noida,,28.567259,77.359151,NO1599.png
NO1470,"Army Public School, Noida","Sector 37, Arun Vihar, Opposite Shaheed Smarak",+91 120 243 0432,http://apsnoida.edu.in/,4.4,Noida,CBSE,28.566768,77.339373,NO1470.png
NO1889,Amity International School,Sector 44,+91 120 439 9000,http://www.amity.edu/ais/aiss/,3.8,Noida,CBSE,28.556352,77.33084,NO1889.png
NO1201,Noida Public Senior Secondary School,A-78,+91 120 241 1300,http://www.noidapublicschool.com/,3.8,Noida,CBSE,28.593112,77.352221,NO1201.png
NO514,Genesis Global School,"A - 12, Sector - 132, Expressway",+91 97110 00626,http://www.genesisglobalschool.edu.in/,4.2,Noida,,28.522515,77.384437,NO514.png
NO877,Sapphire International School,"SS - 1, Sector 70",+91 97173 30066,http://www.sapphireschool.in/,4.2,Noida,CBSE,28.596392,77.381092,NO877.png
NO557,Shiv Nadar School,"Plot No -SS -1, Expressway, Sector 168",+91 120 640 7177,http://shivnadarschool.edu.in/,4.1,Noida,CBSE,28.495058,77.411961,NO557.png
NO535,Delhi Public School,Sector-30,+91 120 450 9100,http://www.dpsnoida.co.in/,3.9,Noida,CBSE,28.574891,77.336245,NO535.png
NO1736,Bal Bharati Public School,Sector 21,+91 120 253 8533,http://bbpsnoida.balbharati.org/,3.5,Noida,CBSE,28.585627,77.338144,NO1736.png
NO524,"Delhi Public School,Gautam Buddh Nagar",B-1,+91 99999 99484,http://www.dpsgbn.com/,4.3,Noida,CBSE,28.516002,77.374654,NO524.png
NO1231,"Global Indian International School (GIIS), Noida Campus",D-5,+91 97186 66111,http://www.giisnoida.org/,4.2,Noida,CBSE,28.592419,77.379852,NO1231.png
NO714,Ryan International School,"D – 46B, Near Golf Course Metro Station, Sector 39, Gautam Buddh Nagar",+91 120 257 4471,http://www.ryaninternational.org/risnoida/,3.9,Noida,CBSE,28.576716,77.361388,NO714.png
NO1548,Sarla Chopra Dav Public School,"A53A, Sector 56",+91 120 425 8052,http://www.davnoida.org/,4.1,Noida,CBSE,28.604139,77.345247,NO1548.png
NO1761,Kothari International School,B-279,+91 120 408 2430,http://www.kotharischool.edu.in/,4,Noida,CBSE,28.572347,77.363633,NO1761.png
NO1898,"G.D. GOENKA GLOBAL SCHOOL, NOIDA","A56, Sector - 50 , Noida , UP",+91 99993 52863,http://www.gdgoenkanoida.com/,4.9,Noida,CBSE,28.572338,77.363644,NO1898.png
NO605,JSS Public School,"No.A-104-A, Sector 61, Behind Shopprix Mall",+91 96549 99764,http://www.jsspsn.edu.in/,4.3,Noida,CBSE,28.595718,77.365991,NO605.png
NO1979,Rockwood School,"Near, B-67, Sector 33",+91 120 428 2242,http://www.rockwoodschool.org/,3.8,Noida,CBSE,28.589011,77.357228,NO1979.png
NO1718,JBM GLOBAL SCHOOL,"A-11, Sector 132, Expressway",+91 99101 53515,http://www.jbms.in/,4.5,Noida,CBSE,28.513795,77.378813,NO1718.png
NO951,Genesis Global School,"subarea, Sector 126",+91 97110 00498,http://www.genesisglobalschool.edu.in/admissions/annual-fee-structure/,3.3,Noida,,28.514659,77.38099,NO951.png
NO1763,Lotus Valley International School,"2B, Noida-Greater Noida Expy",+91 99109 62228,https://www.lotusvalley.com/,4.4,Noida,CBSE,28.538568,77.345999,NO1763.png
NO914,City Public School,"E-3, Sector - 61",+91 120 258 6310,http://cpsnoida.com/,3.8,Noida,CBSE,28.594357,77.371409,NO914.png
NO1155,Ramagya School : Best CBSE School In Noida | School In Noida,E-7,+91 80103 33555,http://ramagyaschool.com/,4.1,Noida,CBSE,28.573631,77.371503,NO1155.png
NO1664,Brahmananda Public School,"A-62/A, Sector 20, Gautam Buddh Nagar",+91 120 252 3828,http://www.brahmanandaindia.org/,3.9,Noida,CBSE,28.583158,77.328474,NO1664.png
NO738,Manav Rachna International School,D-196,+91 120 460 2350,http://mris.edu.in/noida-sector-51/,4.4,Noida,CBSE,28.580234,77.376841,NO738.png
NO1679,Indian National Public School,"E-78A, Sector 20",+91 120 432 0879,http://www.inpschool.com/,3.4,Noida,CBSE,28.583603,77.333764,NO1679.png
NO1783,Fortune World School,"Block b, Sector 105, Noida Expressway, behind India Oil",+91 120 256 8995,http://www.fortuneworldschool.com/,4.6,Noida,CBSE,28.534578,77.370973,NO1783.png
NO987,Jagran Public School Noida,"Block A, Jagran Public School, Sector 47",+91 120 404 3830,http://www.jpsnoida.com/,4.2,Noida,CBSE,28.552085,77.371878,NO987.png
NO1547,J. S. S. Public School,"Gali number 3, jhariya colony",+91 99905 21559,http://jsspsn.edu.in/,3,Noida,CBSE,28.565766,77.376986,NO1547.png
NO1974,Step by Step School,"Plot - A 10, Sector 132, Taj Expressway",+91 120 385 7300,http://www.sbs-school.org/,3.9,Noida,CBSE,28.511859,77.378871,NO1974.png
NO1844,Indraprastha Global School,"Plot No: S1, Sector 93 B, Express Highway",+91 120 242 6040,http://www.indraprasthaschool.com/webaura/igs/index.asp,3.9,Noida,CBSE,28.513076,77.389548,NO1844.png
NO1901,Little Scholar School Noida,A-687A,+91 120 435 4424,http://www.littlescholarnoida.com/,4.3,Noida,CBSE,28.577198,77.32466,NO1901.png
NO879,KLAY Prep Schools and DayCare,"B-15, Ground Floor, Sana Heights,, Sector 132, Opposite Somerville School, Noida-Greater Noida Expressway",+91 76767 08888,http://www.klayschools.com/?utm_source=google-listing-UTM&utm_medium=Mybusiness,5,Noida,,28.514098,77.388119,NO879.png
NO1642,Noida School of Rock,"A 117C, Sector 35",+91 98184 48705,http://www.noidaschoolofrock.com/,4,Noida,,28.581728,77.356029,NO1642.png
NO893,Amity Global School,"Amity Global School, Sector 44",+91 120 439 1278,http://www.amityglobalschool.com/noida,4.3,Noida,CBSE,28.440901,77.06533,NO893.png
NO810,Raghav Global School,"SS 1 Block-A, Sector 122",+91 85889 44468,http://rgsnoida.com/,4.2,Noida,CBSE,28.592652,77.39012,NO810.png
NO1815,Yadu Public School,"Gautam Budh Nagar, Sector 73",+91 120 656 6686,http://yadupublicschool.com/,3.9,Noida,CBSE,28.588184,77.390636,NO1815.png
NO1160,THE ARDEE SCHOOL,3C Complex,+91 98103 02158,http://theardeeschool.com/noida/,4.2,Noida,,28.560912,77.276248,NO1160.png
NO1363,Adarsh Public School,B -193,+91 120 249 8985,http://www.adarshpublicschoolnoida.com/,3.7,Noida,CBSE,28.633232,77.07133,NO1363.png
NO856,AMAR PUBLIC SCHOOL,"PS-2B, Arun Vihar, Sector 37",+91 98998 74777,http://www.amarpublicschool.com/,3.4,Noida,CBSE,28.582929,77.363524,NO856.png
NO1971,KIDZEE SCHOOL,"RP1/RP2,SEC-71,CBLOCK",+91 92666 61861,http://www.kidzeenoida.com/,3.6,Noida,,28.617148,77.36989,NO1971.png
NO800,KLAY Prep Schools and DayCare,"GF, Tower 8, Unitech Infospace, Sector 135",+91 76767 08888,http://www.klayschools.com/?utm_source=google-listing-UTM&utm_medium=Mybusiness,3,Noida,,28.618508,77.371179,NO800.png
NO1890,Gyanshree School,"Plot No 3 & 4, Noida Expressway, Sector 127",+91 70421 93396,http://gyanshree.in/,4.6,Noida,CBSE,28.536521,77.34983,NO1890.png
NO1462,Cambridge School,"Chhalera, BISRAKH",+91 120 252 3645,http://noida.cambridgeschool.edu.in/,3,Noida,CBSE,28.573109,77.328855,NO1462.png
NO1934,Marigold Public School,"B-183, B&C, Sector - 19",+91 120 244 0054,http://www.marigoldindia.com/,3.5,Noida,CBSE,28.579003,77.324406,NO1934.png
NO1577,LPS Global School,D-196/2,+91 92053 58900,http://lpsglobal.org/,4.5,Noida,CBSE,28.579652,77.376741,NO1577.png
NO954,Uttarakhand Public School,"E-1, Sec 56",+91 120 431 9363 ext. 4516792,http://www.uttarakhandpublicschool.com/,3.8,Noida,CBSE,28.602403,77.343539,NO954.png
NO1762,Kothari Starz,B-279,+91 80101 28128,http://www.kotharistarz.com/,5,Noida,,28.567449,77.36673,NO1762.png
NO597,Delhi Public School,Barola Bisrakh,+91 120 450 9100,http://www.dpsnoida.co.in/,3.8,Noida,CBSE,28.574853,77.336009,NO597.png
NO1643,The Millennium School,"Plot No. SS-01,, Sector 119",+91 99588 89650,http://themillenniumschools.com/,3.9,Noida,CBSE,28.594974,77.408844,NO1643.png
NO967,Makoons Play School Noida,PK-A 1,+91 98702 74875,http://www.makoons.com/,5,Noida,,28.620904,77.379319,NO967.png
NO1597,Somerville International School,"A-07, Sector - 132, Expressway, NOIDA, DISTT. GAUTAM BUDH NAGAR",+91 96505 06358,http://www.somervilleinternational.in/,4.2,Noida,CBSE,28.509248,77.375289,NO1597.png
NO1476,Sapphire International School,"E-22B, Sector-8",+91 82680 39994,http://www.sapphireschool.in/,3,Noida,CBSE,28.596402,77.381189,NO1476.png
NO1061,SANFORT PLAY SCHOOL NOIDA SECTOR 117,"SANFORT NOIDA SECTOR 117, SANFORT PLAY SCHOOL, PLOT NO. GT - 03, SECTOR 117, OPP",+91 95600 23505,http://noida117.sanfortschools.com/,4.3,Noida,,28.573777,77.396126,NO1061.png
NO1257,Kidzee Noida,I-110,+91 98111 30621,http://www.kidzeenoida.com/,4,Noida,,28.575701,77.375224,NO1257.png
NO507,Noida International Public School,"Garhi Chaukhandi, MP3 Main Road, Sector-121",+91 95998 10512,http://noidainternationalpublicschool.com/index.php?option=com_contact&view=contact&id=2&Itemid=86,3.2,Noida,CBSE,28.599114,77.397221,NO507.png
NO805,Shanti International PJH School,"Sector-168, Taj Expressway Chhaproli Khadar",+91 88003 85377,http://www.sispjhs.com/,3.9,Noida,CBSE,28.491687,77.412093,NO805.png
NO1983,Sanfort Play School Sec-70,"BH 127, 201307",+91 95405 88588,http://www.sanfortschools.com/,4.4,Noida,,28.599505,77.387276,NO1983.png
NO692,Presidium School Noida,C- 5/ 230 B 1st floor Sector- 31 Noida,+91 78386 54291,http://www.presidiumnoida.com/,4,Noida,CBSE,28.579246,77.344803,NO692.png
NO1937,MERRY ANGELS PUBLIC SCHOOL NOIDA,F-1 Sector 15 Noida,+91 120 454 2242,http://www.merryangels.org/,3.1,Noida,CBSE,28.579707,77.313225,NO1937.png
NO1282,Sugar Pie Play School Noida Sector 137 By Mothers Pride,"Unit No -204, T-26, Paras Tierea, Sector 137, Noida",+91 99993 22625,https://sugarpieplayschoolnoida.business.site/,5,Noida,,28.506204,77.411155,NO1282.png
NO1187,"Maple Bear Canadian PreSchool Sector 141, Noida","SH 44, Opposite Logix Blossom County, Sector 141,, 8447884099",+91 84478 84099,http://www.maplebear.in/,4.9,Noida,,28.509904,77.416091,NO1187.png
